{
  "metadata": {
    "start_time": 1752964773.0942159,
    "end_time": 1752964823.527086,
    "duration": 50.43287014961243,
    "message_count": 799,
    "created": "2025-07-20T00:40:23.527089",
    "version": "1.0"
  },
  "messages": [
    {
      "timestamp": 1752964773.131632,
      "relative_time": 0.03741621971130371,
      "message": "$IIMWV,345.0,R,11.25,N,A*38",
      "sequence": 0
    },
    {
      "timestamp": 1752964773.194226,
      "relative_time": 0.10001015663146973,
      "message": "$IIVHW,,T,170.44,M,,N,,K*4D",
      "sequence": 1
    },
    {
      "timestamp": 1752964773.252534,
      "relative_time": 0.15831804275512695,
      "message": "$IIVHW,,T,170.43,M,,N,,K*4A",
      "sequence": 2
    },
    {
      "timestamp": 1752964773.3156412,
      "relative_time": 0.22142529487609863,
      "message": "$IIMWV,359.0,R,11.06,N,A*34",
      "sequence": 3
    },
    {
      "timestamp": 1752964773.372882,
      "relative_time": 0.27866601943969727,
      "message": "$IIVHW,,T,170.43,M,,N,,K*4A",
      "sequence": 4
    },
    {
      "timestamp": 1752964773.4711812,
      "relative_time": 0.3769652843475342,
      "message": "$HCHDG,170.43,,,,*73",
      "sequence": 5
    },
    {
      "timestamp": 1752964773.516076,
      "relative_time": 0.4218602180480957,
      "message": "$IIVHW,,T,170.43,M,,N,,K*4A",
      "sequence": 6
    },
    {
      "timestamp": 1752964773.574091,
      "relative_time": 0.4798750877380371,
      "message": "$IIMWV,359.0,R,10.96,N,A*3C",
      "sequence": 7
    },
    {
      "timestamp": 1752964773.638623,
      "relative_time": 0.5444071292877197,
      "message": "$IIVHW,,T,170.43,M,,N,,K*4A",
      "sequence": 8
    },
    {
      "timestamp": 1752964773.6936011,
      "relative_time": 0.5993852615356445,
      "message": "$HCHDG,170.43,,,,*73",
      "sequence": 9
    },
    {
      "timestamp": 1752964773.7438662,
      "relative_time": 0.6496503353118896,
      "message": "$TIROT,-0.00,A*26",
      "sequence": 10
    },
    {
      "timestamp": 1752964773.787881,
      "relative_time": 0.6936650276184082,
      "message": "$IIMWV,358.5,R,11.06,N,A*30",
      "sequence": 11
    },
    {
      "timestamp": 1752964773.852056,
      "relative_time": 0.7578401565551758,
      "message": "$IIVHW,,T,170.43,M,,N,,K*4A",
      "sequence": 12
    },
    {
      "timestamp": 1752964773.9112508,
      "relative_time": 0.8170349597930908,
      "message": "$IIVHW,,T,170.44,M,,N,,K*4D",
      "sequence": 13
    },
    {
      "timestamp": 1752964773.971426,
      "relative_time": 0.8772101402282715,
      "message": "$HCHDG,170.44,,,,*74",
      "sequence": 14
    },
    {
      "timestamp": 1752964774.016761,
      "relative_time": 0.9225451946258545,
      "message": "$IIMWV,1.0,R,10.75,N,A*3F",
      "sequence": 15
    },
    {
      "timestamp": 1752964774.0723672,
      "relative_time": 0.9781513214111328,
      "message": "$TIROT,0.00,A*0B",
      "sequence": 16
    },
    {
      "timestamp": 1752964774.110006,
      "relative_time": 1.0157902240753174,
      "message": "$IIMWV,8.5,R,11.25,N,A*37",
      "sequence": 17
    },
    {
      "timestamp": 1752964774.166008,
      "relative_time": 1.0717921257019043,
      "message": "$IIVHW,,T,170.44,M,,N,,K*4D",
      "sequence": 18
    },
    {
      "timestamp": 1752964774.226662,
      "relative_time": 1.132446050643921,
      "message": "$IIMWV,15.5,R,11.35,N,A*0A",
      "sequence": 19
    },
    {
      "timestamp": 1752964774.307435,
      "relative_time": 1.213219165802002,
      "message": "$IIVHW,,T,170.45,M,,N,,K*4C",
      "sequence": 20
    },
    {
      "timestamp": 1752964774.3516102,
      "relative_time": 1.2573943138122559,
      "message": "$GPZDA,223932,19,07,2025,,*49",
      "sequence": 21
    },
    {
      "timestamp": 1752964774.420667,
      "relative_time": 1.326451063156128,
      "message": "$IIVHW,,T,170.44,M,,N,,K*4D",
      "sequence": 22
    },
    {
      "timestamp": 1752964774.485164,
      "relative_time": 1.3909480571746826,
      "message": "$IIMWV,14.5,R,11.16,N,A*0A",
      "sequence": 23
    },
    {
      "timestamp": 1752964774.545974,
      "relative_time": 1.4517581462860107,
      "message": "$IIMWV,16.5,R,11.76,N,A*0E",
      "sequence": 24
    },
    {
      "timestamp": 1752964774.6039739,
      "relative_time": 1.5097579956054688,
      "message": "$IIVWR,16.5,R,11.76,N,,,,*7C",
      "sequence": 25
    },
    {
      "timestamp": 1752964774.6665878,
      "relative_time": 1.5723719596862793,
      "message": "$IIMWV,31.0,R,11.95,N,A*03",
      "sequence": 26
    },
    {
      "timestamp": 1752964774.727475,
      "relative_time": 1.6332590579986572,
      "message": "$IIVHW,,T,170.45,M,,N,,K*4C",
      "sequence": 27
    },
    {
      "timestamp": 1752964774.792417,
      "relative_time": 1.6982011795043945,
      "message": "$IIMWV,29.0,R,12.05,N,A*00",
      "sequence": 28
    },
    {
      "timestamp": 1752964774.8536162,
      "relative_time": 1.7594003677368164,
      "message": "$HCHDG,170.44,,,,*74",
      "sequence": 29
    },
    {
      "timestamp": 1752964774.89969,
      "relative_time": 1.805474042892456,
      "message": "!AIVDM,1,1,,B,B33jcSP007uckT6uB2cQ3wh5kP06,0*56",
      "sequence": 30
    },
    {
      "timestamp": 1752964775.007029,
      "relative_time": 1.9128131866455078,
      "message": "$IIMWV,25.5,R,12.15,N,A*08",
      "sequence": 31
    },
    {
      "timestamp": 1752964775.0609322,
      "relative_time": 1.9667162895202637,
      "message": "$IIVHW,,T,170.45,M,,N,,K*4C",
      "sequence": 32
    },
    {
      "timestamp": 1752964775.120738,
      "relative_time": 2.026522159576416,
      "message": "$IIVHW,,T,170.46,M,,N,,K*4F",
      "sequence": 33
    },
    {
      "timestamp": 1752964775.189916,
      "relative_time": 2.0957000255584717,
      "message": "$GPGLL,4838.1994,N,00201.4008,W,,A,A*58",
      "sequence": 34
    },
    {
      "timestamp": 1752964775.276802,
      "relative_time": 2.182586193084717,
      "message": "$IIVHW,,T,170.45,M,,N,,K*4C",
      "sequence": 35
    },
    {
      "timestamp": 1752964775.338615,
      "relative_time": 2.244399070739746,
      "message": "$IIMWV,36.0,R,12.56,N,A*08",
      "sequence": 36
    },
    {
      "timestamp": 1752964775.396205,
      "relative_time": 2.3019890785217285,
      "message": "$GPZDA,223933,19,07,2025,,*48",
      "sequence": 37
    },
    {
      "timestamp": 1752964775.468123,
      "relative_time": 2.3739070892333984,
      "message": "$IIMWV,33.5,R,12.85,N,A*06",
      "sequence": 38
    },
    {
      "timestamp": 1752964775.529213,
      "relative_time": 2.434997081756592,
      "message": "$IIMWV,25.0,R,12.95,N,A*05",
      "sequence": 39
    },
    {
      "timestamp": 1752964775.5878332,
      "relative_time": 2.493617296218872,
      "message": "$IIVHW,,T,170.47,M,,N,,K*4E",
      "sequence": 40
    },
    {
      "timestamp": 1752964775.64902,
      "relative_time": 2.5548040866851807,
      "message": "$IIMWV,20.0,R,12.95,N,A*00",
      "sequence": 41
    },
    {
      "timestamp": 1752964775.708578,
      "relative_time": 2.6143622398376465,
      "message": "$IIVHW,,T,170.47,M,,N,,K*4E",
      "sequence": 42
    },
    {
      "timestamp": 1752964775.7727082,
      "relative_time": 2.678492307662964,
      "message": "$HCHDG,170.47,,,,*77",
      "sequence": 43
    },
    {
      "timestamp": 1752964775.814933,
      "relative_time": 2.720717191696167,
      "message": "$IIMWV,12.5,R,13.04,N,A*0D",
      "sequence": 44
    },
    {
      "timestamp": 1752964775.877812,
      "relative_time": 2.7835960388183594,
      "message": "$IIMWV,13.5,R,13.14,N,A*0D",
      "sequence": 45
    },
    {
      "timestamp": 1752964775.931047,
      "relative_time": 2.8368310928344727,
      "message": "$IIVHW,,T,170.46,M,,N,,K*4F",
      "sequence": 46
    },
    {
      "timestamp": 1752964775.993546,
      "relative_time": 2.8993301391601562,
      "message": "$IIMWV,15.0,R,13.26,N,A*0F",
      "sequence": 47
    },
    {
      "timestamp": 1752964776.050105,
      "relative_time": 2.9558892250061035,
      "message": "$IIMWV,18.0,R,13.74,N,A*05",
      "sequence": 48
    },
    {
      "timestamp": 1752964776.108554,
      "relative_time": 3.0143380165100098,
      "message": "$GPGLL,4838.1993,N,00201.4009,W,,A,A*5E",
      "sequence": 49
    },
    {
      "timestamp": 1752964776.194525,
      "relative_time": 3.100309133529663,
      "message": "$IIVHW,,T,170.45,M,,N,,K*4C",
      "sequence": 50
    },
    {
      "timestamp": 1752964776.2765481,
      "relative_time": 3.1823322772979736,
      "message": "$IIMWV,18.5,R,12.95,N,A*0E",
      "sequence": 51
    },
    {
      "timestamp": 1752964776.3122911,
      "relative_time": 3.2180752754211426,
      "message": "$IIVHW,,T,170.45,M,,N,,K*4C",
      "sequence": 52
    },
    {
      "timestamp": 1752964776.374439,
      "relative_time": 3.2802231311798096,
      "message": "$IIMWV,23.0,R,13.45,N,A*0F",
      "sequence": 53
    },
    {
      "timestamp": 1752964776.438165,
      "relative_time": 3.34394907951355,
      "message": "$TIROT,-0.00,A*26",
      "sequence": 54
    },
    {
      "timestamp": 1752964776.486552,
      "relative_time": 3.392336130142212,
      "message": "$IIVHW,,T,170.47,M,,N,,K*4E",
      "sequence": 55
    },
    {
      "timestamp": 1752964776.5466182,
      "relative_time": 3.452402353286743,
      "message": "$HCHDG,170.47,,,,*77",
      "sequence": 56
    },
    {
      "timestamp": 1752964776.593579,
      "relative_time": 3.4993631839752197,
      "message": "$IIMWV,16.0,R,12.65,N,A*0A",
      "sequence": 57
    },
    {
      "timestamp": 1752964776.650311,
      "relative_time": 3.5560951232910156,
      "message": "$IIMWV,6.0,R,12.56,N,A*3B",
      "sequence": 58
    },
    {
      "timestamp": 1752964776.706479,
      "relative_time": 3.6122632026672363,
      "message": "$IIVHW,,T,170.48,M,,N,,K*41",
      "sequence": 59
    },
    {
      "timestamp": 1752964776.775241,
      "relative_time": 3.6810250282287598,
      "message": "$IIMWV,357.5,R,12.34,N,A*3D",
      "sequence": 60
    },
    {
      "timestamp": 1752964776.8364182,
      "relative_time": 3.7422022819519043,
      "message": "$IIVWR,2.5,L,12.34,N,,,,*52",
      "sequence": 61
    },
    {
      "timestamp": 1752964776.899754,
      "relative_time": 3.8055381774902344,
      "message": "$IIMWV,4.5,R,12.25,N,A*38",
      "sequence": 62
    },
    {
      "timestamp": 1752964776.953336,
      "relative_time": 3.8591201305389404,
      "message": "$IIVHW,,T,170.48,M,,N,,K*41",
      "sequence": 63
    },
    {
      "timestamp": 1752964777.0132291,
      "relative_time": 3.919013261795044,
      "message": "$HCHDG,170.48,,,,*78",
      "sequence": 64
    },
    {
      "timestamp": 1752964777.058316,
      "relative_time": 3.9641001224517822,
      "message": "$GPGLL,4838.1993,N,00201.4009,W,,A,A*5E",
      "sequence": 65
    },
    {
      "timestamp": 1752964777.1529331,
      "relative_time": 4.058717250823975,
      "message": "$IIMWV,12.5,R,12.05,N,A*0D",
      "sequence": 66
    },
    {
      "timestamp": 1752964777.209023,
      "relative_time": 4.11480712890625,
      "message": "$IIVHW,,T,170.49,M,,N,,K*40",
      "sequence": 67
    },
    {
      "timestamp": 1752964777.270345,
      "relative_time": 4.176129102706909,
      "message": "$GPZDA,223935,19,07,2025,,*4E",
      "sequence": 68
    },
    {
      "timestamp": 1752964777.332256,
      "relative_time": 4.238040208816528,
      "message": "$GPGLL,4838.1993,N,00201.4009,W,,A,A*5E",
      "sequence": 69
    },
    {
      "timestamp": 1752964777.4178402,
      "relative_time": 4.3236243724823,
      "message": "$IIVHW,,T,170.50,M,,N,,K*48",
      "sequence": 70
    },
    {
      "timestamp": 1752964777.52969,
      "relative_time": 4.435474157333374,
      "message": "$IIMWV,26.0,R,11.95,N,A*05",
      "sequence": 71
    },
    {
      "timestamp": 1752964777.5898612,
      "relative_time": 4.49564528465271,
      "message": "$GPRMC,223935.00,A,4838.2031,N,00201.4024,W,0.019,,190725,,,A*68",
      "sequence": 72
    },
    {
      "timestamp": 1752964777.7327769,
      "relative_time": 4.638561010360718,
      "message": "$IIMWV,20.0,R,11.86,N,A*01",
      "sequence": 73
    },
    {
      "timestamp": 1752964777.7954712,
      "relative_time": 4.7012553215026855,
      "message": "$GPGLL,4838.1993,N,00201.4009,W,,A,A*5E",
      "sequence": 74
    },
    {
      "timestamp": 1752964777.885718,
      "relative_time": 4.791502237319946,
      "message": "$IIVHW,,T,170.51,M,,N,,K*49",
      "sequence": 75
    },
    {
      "timestamp": 1752964777.942836,
      "relative_time": 4.848620176315308,
      "message": "$IIMWV,9.5,R,11.55,N,A*31",
      "sequence": 76
    },
    {
      "timestamp": 1752964778.000355,
      "relative_time": 4.906139135360718,
      "message": "$IIVHW,,T,170.52,M,,N,,K*4A",
      "sequence": 77
    },
    {
      "timestamp": 1752964778.061376,
      "relative_time": 4.967160224914551,
      "message": "$IIMWV,15.5,R,11.35,N,A*0A",
      "sequence": 78
    },
    {
      "timestamp": 1752964778.118446,
      "relative_time": 5.024230241775513,
      "message": "$IIMWV,18.0,R,10.75,N,A*07",
      "sequence": 79
    },
    {
      "timestamp": 1752964778.179808,
      "relative_time": 5.085592031478882,
      "message": "$IIVHW,,T,170.55,M,,N,,K*4D",
      "sequence": 80
    },
    {
      "timestamp": 1752964778.246636,
      "relative_time": 5.1524200439453125,
      "message": "$IIMWV,18.0,R,10.65,N,A*06",
      "sequence": 81
    },
    {
      "timestamp": 1752964778.301913,
      "relative_time": 5.207697153091431,
      "message": "$IIVHW,,T,170.56,M,,N,,K*4E",
      "sequence": 82
    },
    {
      "timestamp": 1752964778.364414,
      "relative_time": 5.270198106765747,
      "message": "$TIROT,0.00,A*0B",
      "sequence": 83
    },
    {
      "timestamp": 1752964778.3993979,
      "relative_time": 5.305181980133057,
      "message": "$IIMWV,23.0,R,10.56,N,A*0E",
      "sequence": 84
    },
    {
      "timestamp": 1752964778.473323,
      "relative_time": 5.379107236862183,
      "message": "$IIVHW,,T,170.57,M,,N,,K*4F",
      "sequence": 85
    },
    {
      "timestamp": 1752964778.532792,
      "relative_time": 5.4385762214660645,
      "message": "$HCHDG,170.57,,,,*76",
      "sequence": 86
    },
    {
      "timestamp": 1752964778.580719,
      "relative_time": 5.4865031242370605,
      "message": "$GPGLL,4838.1993,N,00201.4009,W,,A,A*5E",
      "sequence": 87
    },
    {
      "timestamp": 1752964778.667783,
      "relative_time": 5.573567152023315,
      "message": "$IIMWV,17.5,R,10.65,N,A*0C",
      "sequence": 88
    },
    {
      "timestamp": 1752964778.7420118,
      "relative_time": 5.647795915603638,
      "message": "$IIVWR,17.5,R,10.65,N,,,,*7E",
      "sequence": 89
    },
    {
      "timestamp": 1752964778.792866,
      "relative_time": 5.698650121688843,
      "message": "$IIMWV,25.0,R,10.75,N,A*09",
      "sequence": 90
    },
    {
      "timestamp": 1752964778.850084,
      "relative_time": 5.755868196487427,
      "message": "$IIVWR,25.0,R,10.75,N,,,,*7B",
      "sequence": 91
    },
    {
      "timestamp": 1752964778.912034,
      "relative_time": 5.8178181648254395,
      "message": "$IIMWV,32.0,R,10.46,N,A*0F",
      "sequence": 92
    },
    {
      "timestamp": 1752964778.970227,
      "relative_time": 5.87601113319397,
      "message": "$IIVWR,32.0,R,10.46,N,,,,*7D",
      "sequence": 93
    },
    {
      "timestamp": 1752964779.032066,
      "relative_time": 5.9378502368927,
      "message": "$HCHDG,170.57,,,,*76",
      "sequence": 94
    },
    {
      "timestamp": 1752964779.088716,
      "relative_time": 5.994500160217285,
      "message": "$GPGLL,4838.1992,N,00201.4009,W,,A,A*5F",
      "sequence": 95
    },
    {
      "timestamp": 1752964779.1731431,
      "relative_time": 6.078927278518677,
      "message": "$GPGLL,4838.1992,N,00201.4009,W,,A,A*5F",
      "sequence": 96
    },
    {
      "timestamp": 1752964779.2577658,
      "relative_time": 6.163549900054932,
      "message": "$IIVHW,,T,170.60,M,,N,,K*4B",
      "sequence": 97
    },
    {
      "timestamp": 1752964779.3480792,
      "relative_time": 6.253863334655762,
      "message": "$TIROT,0.00,A*0B",
      "sequence": 98
    },
    {
      "timestamp": 1752964779.358855,
      "relative_time": 6.264639139175415,
      "message": "$GPGLL,4838.1992,N,00201.4009,W,,A,A*5F",
      "sequence": 99
    },
    {
      "timestamp": 1752964779.442393,
      "relative_time": 6.348177194595337,
      "message": "$HCHDG,170.61,,,,*73",
      "sequence": 100
    },
    {
      "timestamp": 1752964779.5258582,
      "relative_time": 6.431642293930054,
      "message": "$GPGLL,4838.1992,N,00201.4009,W,,A,A*5F",
      "sequence": 101
    },
    {
      "timestamp": 1752964779.704243,
      "relative_time": 6.610027074813843,
      "message": "$TIROT,0.00,A*0B",
      "sequence": 102
    },
    {
      "timestamp": 1752964779.758089,
      "relative_time": 6.663873195648193,
      "message": "$IIVHW,,T,170.61,M,,N,,K*4A",
      "sequence": 103
    },
    {
      "timestamp": 1752964779.758101,
      "relative_time": 6.663885116577148,
      "message": "$GPGLL,4838.1992,N,00201.4009,W,,A,A*5F",
      "sequence": 104
    },
    {
      "timestamp": 1752964779.797214,
      "relative_time": 6.702998161315918,
      "message": "$IIVHW,,T,170.60,M,,N,,K*4B",
      "sequence": 105
    },
    {
      "timestamp": 1752964779.988363,
      "relative_time": 6.894147157669067,
      "message": "$GPZDA,223938,19,07,2025,,*43",
      "sequence": 106
    },
    {
      "timestamp": 1752964780.1693351,
      "relative_time": 7.075119256973267,
      "message": "$GPGLL,4838.1992,N,00201.4008,W,,A,A*5E",
      "sequence": 107
    },
    {
      "timestamp": 1752964780.169348,
      "relative_time": 7.075132131576538,
      "message": "$TIROT,-0.00,A*26",
      "sequence": 108
    },
    {
      "timestamp": 1752964780.16935,
      "relative_time": 7.075134038925171,
      "message": "$IIVHW,,T,170.60,M,,N,,K*4B",
      "sequence": 109
    },
    {
      "timestamp": 1752964780.169352,
      "relative_time": 7.075136184692383,
      "message": "$GPGLL,4838.1992,N,00201.4008,W,,A,A*5E",
      "sequence": 110
    },
    {
      "timestamp": 1752964780.19236,
      "relative_time": 7.098144054412842,
      "message": "$TIROT,-0.00,A*26",
      "sequence": 111
    },
    {
      "timestamp": 1752964780.231777,
      "relative_time": 7.137561082839966,
      "message": "$GPGLL,4838.1992,N,00201.4008,W,,A,A*5E",
      "sequence": 112
    },
    {
      "timestamp": 1752964780.317493,
      "relative_time": 7.2232770919799805,
      "message": "$TIROT,0.00,A*0B",
      "sequence": 113
    },
    {
      "timestamp": 1752964780.354639,
      "relative_time": 7.260423183441162,
      "message": "$HCHDG,170.62,,,,*70",
      "sequence": 114
    },
    {
      "timestamp": 1752964780.400322,
      "relative_time": 7.306106090545654,
      "message": "$TIROT,-0.00,A*26",
      "sequence": 115
    },
    {
      "timestamp": 1752964780.44211,
      "relative_time": 7.347894191741943,
      "message": "$IIVHW,,T,170.63,M,,N,,K*48",
      "sequence": 116
    },
    {
      "timestamp": 1752964780.5217228,
      "relative_time": 7.427506923675537,
      "message": "$HCHDG,170.63,,,,*71",
      "sequence": 117
    },
    {
      "timestamp": 1752964780.5672781,
      "relative_time": 7.47306227684021,
      "message": "$IIVHW,,T,170.64,M,,N,,K*4F",
      "sequence": 118
    },
    {
      "timestamp": 1752964780.6259751,
      "relative_time": 7.531759262084961,
      "message": "$IIMWV,346.5,R,11.66,N,A*39",
      "sequence": 119
    },
    {
      "timestamp": 1752964780.689767,
      "relative_time": 7.595551013946533,
      "message": "$IIVHW,,T,170.64,M,,N,,K*4F",
      "sequence": 120
    },
    {
      "timestamp": 1752964780.753043,
      "relative_time": 7.658827066421509,
      "message": "$GPGLL,4838.1992,N,00201.4008,W,,A,A*5E",
      "sequence": 121
    },
    {
      "timestamp": 1752964780.837848,
      "relative_time": 7.743632078170776,
      "message": "$TIROT,0.00,A*0B",
      "sequence": 122
    },
    {
      "timestamp": 1752964780.875059,
      "relative_time": 7.780843019485474,
      "message": "$HCHDG,170.67,,,,*75",
      "sequence": 123
    },
    {
      "timestamp": 1752964780.921105,
      "relative_time": 7.8268890380859375,
      "message": "$IIMWV,354.5,R,11.76,N,A*3B",
      "sequence": 124
    },
    {
      "timestamp": 1752964780.996724,
      "relative_time": 7.902508020401001,
      "message": "$IIVHW,,T,170.67,M,,N,,K*4C",
      "sequence": 125
    },
    {
      "timestamp": 1752964781.0566158,
      "relative_time": 7.962399959564209,
      "message": "$IIVHW,,T,170.68,M,,N,,K*43",
      "sequence": 126
    },
    {
      "timestamp": 1752964781.115053,
      "relative_time": 8.02083706855774,
      "message": "$HCHDG,170.68,,,,*7A",
      "sequence": 127
    },
    {
      "timestamp": 1752964781.160903,
      "relative_time": 8.066687107086182,
      "message": "$GPRMC,223939.00,A,4838.2028,N,00201.4023,W,0.019,,190725,,,A*6B",
      "sequence": 128
    },
    {
      "timestamp": 1752964781.301554,
      "relative_time": 8.207338094711304,
      "message": "$IIVHW,,T,170.67,M,,N,,K*4C",
      "sequence": 129
    },
    {
      "timestamp": 1752964781.357028,
      "relative_time": 8.26281213760376,
      "message": "$HCHDG,170.67,,,,*75",
      "sequence": 130
    },
    {
      "timestamp": 1752964781.4064891,
      "relative_time": 8.312273263931274,
      "message": "$GPGLL,4838.1992,N,00201.4008,W,,A,A*5E",
      "sequence": 131
    },
    {
      "timestamp": 1752964781.5260968,
      "relative_time": 8.431880950927734,
      "message": "$GPGLL,4838.1992,N,00201.4008,W,,A,A*5E",
      "sequence": 132
    },
    {
      "timestamp": 1752964781.61114,
      "relative_time": 8.516924142837524,
      "message": "$IIVHW,,T,170.67,M,,N,,K*4C",
      "sequence": 133
    },
    {
      "timestamp": 1752964781.697582,
      "relative_time": 8.603366136550903,
      "message": "$GPZDA,223940,19,07,2025,,*4C",
      "sequence": 134
    },
    {
      "timestamp": 1752964781.739937,
      "relative_time": 8.645721197128296,
      "message": "$IIMWV,341.5,R,11.95,N,A*32",
      "sequence": 135
    },
    {
      "timestamp": 1752964781.8013499,
      "relative_time": 8.707134008407593,
      "message": "$GPGLL,4838.1991,N,00201.4008,W,,A,A*5D",
      "sequence": 136
    },
    {
      "timestamp": 1752964781.89244,
      "relative_time": 8.798224210739136,
      "message": "$GPGLL,4838.1991,N,00201.4008,W,,A,A*5D",
      "sequence": 137
    },
    {
      "timestamp": 1752964781.989609,
      "relative_time": 8.895393133163452,
      "message": "$IIVHW,,T,170.67,M,,N,,K*4C",
      "sequence": 138
    },
    {
      "timestamp": 1752964782.049479,
      "relative_time": 8.955263137817383,
      "message": "$HCHDG,170.67,,,,*75",
      "sequence": 139
    },
    {
      "timestamp": 1752964782.097013,
      "relative_time": 9.00279712677002,
      "message": "$GPRMC,223940.00,A,4838.2029,N,00201.4024,W,0.019,,190725,,,A*63",
      "sequence": 140
    },
    {
      "timestamp": 1752964782.286647,
      "relative_time": 9.192431211471558,
      "message": "$GPVTG,,,,,0.019,N,0.036,K,A*37",
      "sequence": 141
    },
    {
      "timestamp": 1752964782.301908,
      "relative_time": 9.20769214630127,
      "message": "$TIROT,0.00,A*0B",
      "sequence": 142
    },
    {
      "timestamp": 1752964782.463074,
      "relative_time": 9.368858098983765,
      "message": "$IIVHW,,T,170.66,M,,N,,K*4D",
      "sequence": 143
    },
    {
      "timestamp": 1752964782.46926,
      "relative_time": 9.375044107437134,
      "message": "$IIVHW,,T,170.66,M,,N,,K*4D",
      "sequence": 144
    },
    {
      "timestamp": 1752964782.469265,
      "relative_time": 9.375049114227295,
      "message": "$IIMWV,343.5,R,11.35,N,A*3A",
      "sequence": 145
    },
    {
      "timestamp": 1752964782.640617,
      "relative_time": 9.546401023864746,
      "message": "$IIVHW,,T,170.64,M,,N,,K*4F",
      "sequence": 146
    },
    {
      "timestamp": 1752964782.647557,
      "relative_time": 9.553341150283813,
      "message": "$GPGLL,4838.1991,N,00201.4008,W,,A,A*5D",
      "sequence": 147
    },
    {
      "timestamp": 1752964782.68666,
      "relative_time": 9.59244418144226,
      "message": "$IIMWV,346.5,R,11.55,N,A*39",
      "sequence": 148
    },
    {
      "timestamp": 1752964782.820054,
      "relative_time": 9.72583818435669,
      "message": "$IIVHW,,T,170.64,M,,N,,K*4F",
      "sequence": 149
    },
    {
      "timestamp": 1752964782.820065,
      "relative_time": 9.725849151611328,
      "message": "$HCHDG,170.64,,,,*76",
      "sequence": 150
    },
    {
      "timestamp": 1752964782.856672,
      "relative_time": 9.762456178665161,
      "message": "$TIROT,-0.00,A*26",
      "sequence": 151
    },
    {
      "timestamp": 1752964782.990495,
      "relative_time": 9.896279096603394,
      "message": "$IIVHW,,T,170.64,M,,N,,K*4F",
      "sequence": 152
    },
    {
      "timestamp": 1752964782.996154,
      "relative_time": 9.901938199996948,
      "message": "$HCHDG,170.64,,,,*76",
      "sequence": 153
    },
    {
      "timestamp": 1752964783.001278,
      "relative_time": 9.90706205368042,
      "message": "$TIROT,0.00,A*0B",
      "sequence": 154
    },
    {
      "timestamp": 1752964783.168158,
      "relative_time": 10.073942184448242,
      "message": "$HCHDG,170.64,,,,*76",
      "sequence": 155
    },
    {
      "timestamp": 1752964783.176977,
      "relative_time": 10.08276104927063,
      "message": "$IIMWV,352.5,R,11.86,N,A*32",
      "sequence": 156
    },
    {
      "timestamp": 1752964783.176985,
      "relative_time": 10.08276915550232,
      "message": "$IIVWR,7.5,L,11.86,N,,,,*5D",
      "sequence": 157
    },
    {
      "timestamp": 1752964783.212024,
      "relative_time": 10.117808103561401,
      "message": "$GPGLL,4838.1992,N,00201.4008,W,,A,A*5E",
      "sequence": 158
    },
    {
      "timestamp": 1752964783.29703,
      "relative_time": 10.202814102172852,
      "message": "$GPGLL,4838.1992,N,00201.4008,W,,A,A*5E",
      "sequence": 159
    },
    {
      "timestamp": 1752964783.391357,
      "relative_time": 10.297141075134277,
      "message": "$IIMWV,354.5,R,11.95,N,A*36",
      "sequence": 160
    },
    {
      "timestamp": 1752964783.455734,
      "relative_time": 10.361518144607544,
      "message": "$IIVHW,,T,170.60,M,,N,,K*4B",
      "sequence": 161
    },
    {
      "timestamp": 1752964783.524607,
      "relative_time": 10.430391073226929,
      "message": "$IIMWV,354.5,R,11.76,N,A*3B",
      "sequence": 162
    },
    {
      "timestamp": 1752964783.595906,
      "relative_time": 10.501690149307251,
      "message": "$IIMWV,356.5,R,12.34,N,A*3C",
      "sequence": 163
    },
    {
      "timestamp": 1752964783.659183,
      "relative_time": 10.564967155456543,
      "message": "$IIVHW,,T,170.59,M,,N,,K*41",
      "sequence": 164
    },
    {
      "timestamp": 1752964783.7130182,
      "relative_time": 10.618802309036255,
      "message": "$IIVHW,,T,170.59,M,,N,,K*41",
      "sequence": 165
    },
    {
      "timestamp": 1752964783.772016,
      "relative_time": 10.677800178527832,
      "message": "$TIROT,0.00,A*0B",
      "sequence": 166
    },
    {
      "timestamp": 1752964783.809193,
      "relative_time": 10.714977025985718,
      "message": "$IIMWV,354.5,R,12.15,N,A*3D",
      "sequence": 167
    },
    {
      "timestamp": 1752964783.869324,
      "relative_time": 10.775108098983765,
      "message": "$IIVHW,,T,170.60,M,,N,,K*4B",
      "sequence": 168
    },
    {
      "timestamp": 1752964783.9296849,
      "relative_time": 10.835469007492065,
      "message": "$IIMWV,350.5,R,12.34,N,A*3A",
      "sequence": 169
    },
    {
      "timestamp": 1752964783.99293,
      "relative_time": 10.898714065551758,
      "message": "$IIVWR,9.5,L,12.34,N,,,,*59",
      "sequence": 170
    },
    {
      "timestamp": 1752964784.055346,
      "relative_time": 10.961130142211914,
      "message": "$IIVHW,,T,170.60,M,,N,,K*4B",
      "sequence": 171
    },
    {
      "timestamp": 1752964784.113285,
      "relative_time": 11.019069194793701,
      "message": "$IIMWV,351.0,R,11.76,N,A*3B",
      "sequence": 172
    },
    {
      "timestamp": 1752964784.172208,
      "relative_time": 11.07799220085144,
      "message": "$IIVWR,9.0,L,11.76,N,,,,*59",
      "sequence": 173
    },
    {
      "timestamp": 1752964784.2322829,
      "relative_time": 11.13806700706482,
      "message": "$IIVHW,,T,170.62,M,,N,,K*49",
      "sequence": 174
    },
    {
      "timestamp": 1752964784.292002,
      "relative_time": 11.197786092758179,
      "message": "$TIROT,0.00,A*0B",
      "sequence": 175
    },
    {
      "timestamp": 1752964784.329383,
      "relative_time": 11.235167026519775,
      "message": "$IIVHW,,T,170.61,M,,N,,K*4A",
      "sequence": 176
    },
    {
      "timestamp": 1752964784.392063,
      "relative_time": 11.297847032546997,
      "message": "$IIVHW,,T,170.62,M,,N,,K*49",
      "sequence": 177
    },
    {
      "timestamp": 1752964784.452249,
      "relative_time": 11.358033180236816,
      "message": "$IIVHW,,T,170.63,M,,N,,K*48",
      "sequence": 178
    },
    {
      "timestamp": 1752964784.5256488,
      "relative_time": 11.431432962417603,
      "message": "$IIMWV,349.0,R,11.06,N,A*35",
      "sequence": 179
    },
    {
      "timestamp": 1752964784.589953,
      "relative_time": 11.495737075805664,
      "message": "$IIVWR,11.0,L,11.06,N,,,,*67",
      "sequence": 180
    },
    {
      "timestamp": 1752964784.651856,
      "relative_time": 11.557640075683594,
      "message": "$GPZDA,223943,19,07,2025,,*4F",
      "sequence": 181
    },
    {
      "timestamp": 1752964784.716088,
      "relative_time": 11.621872186660767,
      "message": "$IIVHW,,T,170.63,M,,N,,K*48",
      "sequence": 182
    },
    {
      "timestamp": 1752964784.784836,
      "relative_time": 11.690620183944702,
      "message": "$IIMWV,350.0,R,11.45,N,A*3A",
      "sequence": 183
    },
    {
      "timestamp": 1752964784.846199,
      "relative_time": 11.751983165740967,
      "message": "$IIMWV,351.0,R,10.56,N,A*38",
      "sequence": 184
    },
    {
      "timestamp": 1752964784.906229,
      "relative_time": 11.812013149261475,
      "message": "$HCHDG,170.62,,,,*70",
      "sequence": 185
    },
    {
      "timestamp": 1752964784.9557388,
      "relative_time": 11.861522912979126,
      "message": "$IIMWV,353.5,R,10.96,N,A*33",
      "sequence": 186
    },
    {
      "timestamp": 1752964785.015002,
      "relative_time": 11.920786142349243,
      "message": "$GPGSA,A,3,,,,,,,,,,,,,,7.90,8.00*1A",
      "sequence": 187
    },
    {
      "timestamp": 1752964785.093361,
      "relative_time": 11.999145030975342,
      "message": "$IIMWV,352.0,R,10.96,N,A*37",
      "sequence": 188
    },
    {
      "timestamp": 1752964785.1602209,
      "relative_time": 12.066004991531372,
      "message": "$IIMWV,352.0,R,10.96,N,A*37",
      "sequence": 189
    },
    {
      "timestamp": 1752964785.2132502,
      "relative_time": 12.11903429031372,
      "message": "$IIVWR,8.0,L,10.96,N,,,,*57",
      "sequence": 190
    },
    {
      "timestamp": 1752964785.4044642,
      "relative_time": 12.310248374938965,
      "message": "$IIMWV,356.5,R,11.06,N,A*3E",
      "sequence": 191
    },
    {
      "timestamp": 1752964785.4096022,
      "relative_time": 12.315386295318604,
      "message": "$IIVWR,3.5,L,11.06,N,,,,*51",
      "sequence": 192
    },
    {
      "timestamp": 1752964785.409608,
      "relative_time": 12.315392017364502,
      "message": "$IIMWV,1.5,R,10.65,N,A*3B",
      "sequence": 193
    },
    {
      "timestamp": 1752964785.581954,
      "relative_time": 12.487738132476807,
      "message": "$IIVHW,,T,170.61,M,,N,,K*4A",
      "sequence": 194
    },
    {
      "timestamp": 1752964785.587075,
      "relative_time": 12.492859125137329,
      "message": "$HCHDG,170.61,,,,*73",
      "sequence": 195
    },
    {
      "timestamp": 1752964785.5920498,
      "relative_time": 12.497833967208862,
      "message": "$GPGLL,4838.1992,N,00201.4008,W,,A,A*5E",
      "sequence": 196
    },
    {
      "timestamp": 1752964785.757631,
      "relative_time": 12.66341519355774,
      "message": "$IIMWV,2.5,R,11.16,N,A*3D",
      "sequence": 197
    },
    {
      "timestamp": 1752964785.763288,
      "relative_time": 12.669072151184082,
      "message": "$IIVHW,,T,170.62,M,,N,,K*49",
      "sequence": 198
    },
    {
      "timestamp": 1752964785.792651,
      "relative_time": 12.698435068130493,
      "message": "$IIMWV,0.0,R,10.96,N,A*33",
      "sequence": 199
    },
    {
      "timestamp": 1752964785.935306,
      "relative_time": 12.841090202331543,
      "message": "$IIVWR,0.0,R,10.96,N,,,,*41",
      "sequence": 200
    },
    {
      "timestamp": 1752964785.943208,
      "relative_time": 12.848992109298706,
      "message": "$IIVHW,,T,170.62,M,,N,,K*49",
      "sequence": 201
    },
    {
      "timestamp": 1752964785.972669,
      "relative_time": 12.878453016281128,
      "message": "$IIMWV,359.5,R,11.16,N,A*30",
      "sequence": 202
    },
    {
      "timestamp": 1752964786.032777,
      "relative_time": 12.938561201095581,
      "message": "$IIMWV,3.0,R,11.76,N,A*3F",
      "sequence": 203
    },
    {
      "timestamp": 1752964786.0957031,
      "relative_time": 13.001487255096436,
      "message": "$IIVHW,,T,170.62,M,,N,,K*49",
      "sequence": 204
    },
    {
      "timestamp": 1752964786.1545742,
      "relative_time": 13.06035828590393,
      "message": "$IIMWV,5.0,R,11.86,N,A*36",
      "sequence": 205
    },
    {
      "timestamp": 1752964786.208825,
      "relative_time": 13.114609241485596,
      "message": "$IIMWV,5.5,R,11.95,N,A*31",
      "sequence": 206
    },
    {
      "timestamp": 1752964786.264983,
      "relative_time": 13.170767068862915,
      "message": "$IIVHW,,T,170.63,M,,N,,K*48",
      "sequence": 207
    },
    {
      "timestamp": 1752964786.327749,
      "relative_time": 13.233533143997192,
      "message": "$HCHDG,170.63,,,,*71",
      "sequence": 208
    },
    {
      "timestamp": 1752964786.373388,
      "relative_time": 13.27917218208313,
      "message": "$IIMWV,3.5,R,12.25,N,A*3F",
      "sequence": 209
    },
    {
      "timestamp": 1752964786.429492,
      "relative_time": 13.335276126861572,
      "message": "$IIVWR,3.5,R,12.25,N,,,,*4D",
      "sequence": 210
    },
    {
      "timestamp": 1752964786.4895308,
      "relative_time": 13.395314931869507,
      "message": "$IIMWV,3.5,R,12.46,N,A*3A",
      "sequence": 211
    },
    {
      "timestamp": 1752964786.548856,
      "relative_time": 13.45464015007019,
      "message": "!AIVDM,1,1,,B,13Hp<27P00OnjP0Km@De1gwL2@JO,0*00",
      "sequence": 212
    },
    {
      "timestamp": 1752964786.651422,
      "relative_time": 13.557206153869629,
      "message": "$IIMWV,5.0,R,12.05,N,A*3E",
      "sequence": 213
    },
    {
      "timestamp": 1752964786.707742,
      "relative_time": 13.613526105880737,
      "message": "$IIVHW,,T,170.62,M,,N,,K*49",
      "sequence": 214
    },
    {
      "timestamp": 1752964786.7683089,
      "relative_time": 13.674093008041382,
      "message": "$HCHDG,170.62,,,,*70",
      "sequence": 215
    },
    {
      "timestamp": 1752964786.815883,
      "relative_time": 13.721667051315308,
      "message": "$TIROT,-0.00,A*26",
      "sequence": 216
    },
    {
      "timestamp": 1752964786.852181,
      "relative_time": 13.757965087890625,
      "message": "$IIVHW,,T,170.61,M,,N,,K*4A",
      "sequence": 217
    },
    {
      "timestamp": 1752964786.913044,
      "relative_time": 13.818828105926514,
      "message": "$IIMWV,12.0,R,12.56,N,A*0E",
      "sequence": 218
    },
    {
      "timestamp": 1752964786.973017,
      "relative_time": 13.878801107406616,
      "message": "$IIVWR,12.0,R,12.56,N,,,,*7C",
      "sequence": 219
    },
    {
      "timestamp": 1752964787.038317,
      "relative_time": 13.944101095199585,
      "message": "$GPRMC,223945.00,A,4838.2024,N,00201.4020,W,0.039,,190725,,,A*6D",
      "sequence": 220
    },
    {
      "timestamp": 1752964787.171523,
      "relative_time": 14.077307224273682,
      "message": "$GPVTG,,,,,0.039,N,0.072,K,A*35",
      "sequence": 221
    },
    {
      "timestamp": 1752964787.243348,
      "relative_time": 14.149132013320923,
      "message": "$IIMWV,10.5,R,12.56,N,A*09",
      "sequence": 222
    },
    {
      "timestamp": 1752964787.2985039,
      "relative_time": 14.204288005828857,
      "message": "$HCHDG,170.61,,,,*73",
      "sequence": 223
    },
    {
      "timestamp": 1752964787.350116,
      "relative_time": 14.255900144577026,
      "message": "$IIMWV,355.5,R,12.34,N,A*3F",
      "sequence": 224
    },
    {
      "timestamp": 1752964787.410068,
      "relative_time": 14.315852165222168,
      "message": "$IIMWV,355.0,R,12.25,N,A*3A",
      "sequence": 225
    },
    {
      "timestamp": 1752964787.470753,
      "relative_time": 14.376537084579468,
      "message": "$IIVHW,,T,170.61,M,,N,,K*4A",
      "sequence": 226
    },
    {
      "timestamp": 1752964787.550582,
      "relative_time": 14.456366062164307,
      "message": "$IIMWV,7.0,R,12.15,N,A*3D",
      "sequence": 227
    },
    {
      "timestamp": 1752964787.6042838,
      "relative_time": 14.5100679397583,
      "message": "$IIVWR,7.0,R,12.15,N,,,,*4F",
      "sequence": 228
    },
    {
      "timestamp": 1752964787.667989,
      "relative_time": 14.57377314567566,
      "message": "!AIVDM,1,1,,B,402:oVB0=MA00OpWJjKtGrg00L0G,0*4D",
      "sequence": 229
    },
    {
      "timestamp": 1752964787.7658508,
      "relative_time": 14.671634912490845,
      "message": "$IIVHW,,T,170.62,M,,N,,K*49",
      "sequence": 230
    },
    {
      "timestamp": 1752964787.825619,
      "relative_time": 14.731403112411499,
      "message": "$HCHDG,170.62,,,,*70",
      "sequence": 231
    },
    {
      "timestamp": 1752964787.872098,
      "relative_time": 14.777882099151611,
      "message": "$TIROT,0.00,A*0B",
      "sequence": 232
    },
    {
      "timestamp": 1752964787.910192,
      "relative_time": 14.8159761428833,
      "message": "$GPZDA,223946,19,07,2025,,*4A",
      "sequence": 233
    },
    {
      "timestamp": 1752964787.974489,
      "relative_time": 14.88027310371399,
      "message": "$IIVHW,,T,170.63,M,,N,,K*48",
      "sequence": 234
    },
    {
      "timestamp": 1752964788.034827,
      "relative_time": 14.940611124038696,
      "message": "!AIVDM,1,1,,B,B3Hp2CP00OucOqVuD3ek;wo5oP06,0*5F",
      "sequence": 235
    },
    {
      "timestamp": 1752964788.1387699,
      "relative_time": 15.044553995132446,
      "message": "$IIMWV,1.5,R,12.25,N,A*3D",
      "sequence": 236
    },
    {
      "timestamp": 1752964788.1948001,
      "relative_time": 15.100584268569946,
      "message": "$IIVHW,,T,170.63,M,,N,,K*48",
      "sequence": 237
    },
    {
      "timestamp": 1752964788.2578418,
      "relative_time": 15.163625955581665,
      "message": "$HCHDG,170.63,,,,*71",
      "sequence": 238
    },
    {
      "timestamp": 1752964788.3054268,
      "relative_time": 15.21121096611023,
      "message": "$TIROT,-0.00,A*26",
      "sequence": 239
    },
    {
      "timestamp": 1752964788.347316,
      "relative_time": 15.253100156784058,
      "message": "$IIVHW,,T,170.63,M,,N,,K*48",
      "sequence": 240
    },
    {
      "timestamp": 1752964788.4093041,
      "relative_time": 15.315088272094727,
      "message": "$HCHDG,170.63,,,,*71",
      "sequence": 241
    },
    {
      "timestamp": 1752964788.453832,
      "relative_time": 15.359616041183472,
      "message": "$IIMWV,7.5,R,12.25,N,A*3B",
      "sequence": 242
    },
    {
      "timestamp": 1752964788.519658,
      "relative_time": 15.425442218780518,
      "message": "$IIVHW,,T,170.64,M,,N,,K*4F",
      "sequence": 243
    },
    {
      "timestamp": 1752964788.585334,
      "relative_time": 15.49111819267273,
      "message": "$HCHDG,170.64,,,,*76",
      "sequence": 244
    },
    {
      "timestamp": 1752964788.63034,
      "relative_time": 15.536124229431152,
      "message": "$TIROT,0.00,A*0B",
      "sequence": 245
    },
    {
      "timestamp": 1752964788.667674,
      "relative_time": 15.573458194732666,
      "message": "$IIVHW,,T,170.65,M,,N,,K*4E",
      "sequence": 246
    },
    {
      "timestamp": 1752964788.727433,
      "relative_time": 15.633217096328735,
      "message": "$HCHDG,170.65,,,,*77",
      "sequence": 247
    },
    {
      "timestamp": 1752964788.779105,
      "relative_time": 15.684889078140259,
      "message": "$TIROT,0.00,A*0B",
      "sequence": 248
    },
    {
      "timestamp": 1752964788.811132,
      "relative_time": 15.71691608428955,
      "message": "$IIMWV,5.0,R,12.46,N,A*39",
      "sequence": 249
    },
    {
      "timestamp": 1752964788.866198,
      "relative_time": 15.771982192993164,
      "message": "$HCHDG,170.66,,,,*74",
      "sequence": 250
    },
    {
      "timestamp": 1752964788.9119859,
      "relative_time": 15.817770004272461,
      "message": "$IIMWV,4.0,R,12.75,N,A*38",
      "sequence": 251
    },
    {
      "timestamp": 1752964788.980791,
      "relative_time": 15.88657522201538,
      "message": "$IIVHW,,T,170.67,M,,N,,K*4C",
      "sequence": 252
    },
    {
      "timestamp": 1752964789.028061,
      "relative_time": 15.933845043182373,
      "message": "$IIMWV,4.5,R,12.65,N,A*3C",
      "sequence": 253
    },
    {
      "timestamp": 1752964789.086921,
      "relative_time": 15.99270510673523,
      "message": "$IIVHW,,T,170.67,M,,N,,K*4C",
      "sequence": 254
    },
    {
      "timestamp": 1752964789.149607,
      "relative_time": 16.05539107322693,
      "message": "$IIMWV,1.0,R,13.26,N,A*3A",
      "sequence": 255
    },
    {
      "timestamp": 1752964789.2057889,
      "relative_time": 16.111572980880737,
      "message": "$GPGLL,4838.1992,N,00201.4008,W,,A,A*5E",
      "sequence": 256
    },
    {
      "timestamp": 1752964789.2916899,
      "relative_time": 16.197474002838135,
      "message": "$IIMWV,1.5,R,12.75,N,A*38",
      "sequence": 257
    },
    {
      "timestamp": 1752964789.347344,
      "relative_time": 16.253128051757812,
      "message": "$IIMWV,1.0,R,12.85,N,A*32",
      "sequence": 258
    },
    {
      "timestamp": 1752964789.4035661,
      "relative_time": 16.30935025215149,
      "message": "$IIMWV,359.0,R,12.85,N,A*3C",
      "sequence": 259
    },
    {
      "timestamp": 1752964789.471039,
      "relative_time": 16.37682318687439,
      "message": "$IIMWV,358.5,R,12.85,N,A*38",
      "sequence": 260
    },
    {
      "timestamp": 1752964789.58287,
      "relative_time": 16.488654136657715,
      "message": "$IIVHW,,T,170.71,M,,N,,K*4B",
      "sequence": 261
    },
    {
      "timestamp": 1752964789.646261,
      "relative_time": 16.552045106887817,
      "message": "$IIVHW,,T,170.72,M,,N,,K*48",
      "sequence": 262
    },
    {
      "timestamp": 1752964789.708043,
      "relative_time": 16.613827228546143,
      "message": "$GPGLL,4838.1992,N,00201.4008,W,,A,A*5E",
      "sequence": 263
    },
    {
      "timestamp": 1752964789.792208,
      "relative_time": 16.697992086410522,
      "message": "$TIROT,0.00,A*0B",
      "sequence": 264
    },
    {
      "timestamp": 1752964789.830623,
      "relative_time": 16.736407041549683,
      "message": "$IIMWV,358.5,R,12.34,N,A*32",
      "sequence": 265
    },
    {
      "timestamp": 1752964789.894089,
      "relative_time": 16.799873113632202,
      "message": "$IIMWV,356.5,R,12.15,N,A*3F",
      "sequence": 266
    },
    {
      "timestamp": 1752964789.9559119,
      "relative_time": 16.861696004867554,
      "message": "$HCHDG,170.73,,,,*70",
      "sequence": 267
    },
    {
      "timestamp": 1752964790.002957,
      "relative_time": 16.908741235733032,
      "message": "$IIMWV,355.5,R,11.86,N,A*35",
      "sequence": 268
    },
    {
      "timestamp": 1752964790.061485,
      "relative_time": 16.9672691822052,
      "message": "$IIVWR,4.5,L,11.86,N,,,,*5E",
      "sequence": 269
    },
    {
      "timestamp": 1752964790.122912,
      "relative_time": 17.028696060180664,
      "message": "$IIVHW,,T,170.74,M,,N,,K*4E",
      "sequence": 270
    },
    {
      "timestamp": 1752964790.192991,
      "relative_time": 17.098775148391724,
      "message": "$IIVHW,,T,170.74,M,,N,,K*4E",
      "sequence": 271
    },
    {
      "timestamp": 1752964790.259555,
      "relative_time": 17.16533923149109,
      "message": "$IIMWV,6.0,R,11.66,N,A*3B",
      "sequence": 272
    },
    {
      "timestamp": 1752964790.316055,
      "relative_time": 17.22183918952942,
      "message": "$TIROT,0.00,A*0B",
      "sequence": 273
    },
    {
      "timestamp": 1752964790.346806,
      "relative_time": 17.25259017944336,
      "message": "$GPGLL,4838.1992,N,00201.4008,W,,A,A*5E",
      "sequence": 274
    },
    {
      "timestamp": 1752964790.433202,
      "relative_time": 17.33898615837097,
      "message": "$IIMWV,14.5,R,11.06,N,A*0B",
      "sequence": 275
    },
    {
      "timestamp": 1752964790.497084,
      "relative_time": 17.402868032455444,
      "message": "$IIVHW,,T,170.75,M,,N,,K*4F",
      "sequence": 276
    },
    {
      "timestamp": 1752964790.5779681,
      "relative_time": 17.483752250671387,
      "message": "!AIVDM,1,1,,B,B33jcSP00GuckT6uB2SQ3wp5kP06,0*0E",
      "sequence": 277
    },
    {
      "timestamp": 1752964790.682385,
      "relative_time": 17.58816909790039,
      "message": "$GPGLL,4838.1992,N,00201.4008,W,,A,A*5E",
      "sequence": 278
    },
    {
      "timestamp": 1752964790.766896,
      "relative_time": 17.672680139541626,
      "message": "$IIVHW,,T,170.74,M,,N,,K*4E",
      "sequence": 279
    },
    {
      "timestamp": 1752964790.8275928,
      "relative_time": 17.73337697982788,
      "message": "$GPZDA,223949,19,07,2025,,*45",
      "sequence": 280
    },
    {
      "timestamp": 1752964790.891582,
      "relative_time": 17.79736614227295,
      "message": "$IIMWV,5.5,R,10.96,N,A*33",
      "sequence": 281
    },
    {
      "timestamp": 1752964790.948013,
      "relative_time": 17.85379719734192,
      "message": "$GPGLL,4838.1992,N,00201.4008,W,,A,A*5E",
      "sequence": 282
    },
    {
      "timestamp": 1752964791.0334039,
      "relative_time": 17.93918800354004,
      "message": "$IIMWV,14.0,R,10.75,N,A*0B",
      "sequence": 283
    },
    {
      "timestamp": 1752964791.0928042,
      "relative_time": 17.99858832359314,
      "message": "$IIVWR,14.0,R,10.75,N,,,,*79",
      "sequence": 284
    },
    {
      "timestamp": 1752964791.155307,
      "relative_time": 18.06109118461609,
      "message": "$GPGLL,4838.1992,N,00201.4008,W,,A,A*5E",
      "sequence": 285
    },
    {
      "timestamp": 1752964791.246649,
      "relative_time": 18.152433156967163,
      "message": "$TIROT,-0.00,A*26",
      "sequence": 286
    },
    {
      "timestamp": 1752964791.2915158,
      "relative_time": 18.19729995727539,
      "message": "$IIMWV,25.0,R,11.35,N,A*0C",
      "sequence": 287
    },
    {
      "timestamp": 1752964791.3540301,
      "relative_time": 18.259814262390137,
      "message": "$GPGLL,4838.1992,N,00201.4008,W,,A,A*5E",
      "sequence": 288
    },
    {
      "timestamp": 1752964791.44208,
      "relative_time": 18.347864151000977,
      "message": "$IIMWV,16.5,R,10.96,N,A*01",
      "sequence": 289
    },
    {
      "timestamp": 1752964791.496154,
      "relative_time": 18.40193819999695,
      "message": "$GPGLL,4838.1992,N,00201.4008,W,,A,A*5E",
      "sequence": 290
    },
    {
      "timestamp": 1752964791.595306,
      "relative_time": 18.501090049743652,
      "message": "$GPGLL,4838.1992,N,00201.4008,W,,A,A*5E",
      "sequence": 291
    },
    {
      "timestamp": 1752964791.6886861,
      "relative_time": 18.594470262527466,
      "message": "$TIROT,-0.00,A*26",
      "sequence": 292
    },
    {
      "timestamp": 1752964791.729253,
      "relative_time": 18.635037183761597,
      "message": "$GPZDA,223950,19,07,2025,,*4D",
      "sequence": 293
    },
    {
      "timestamp": 1752964791.795584,
      "relative_time": 18.7013680934906,
      "message": "!AIVDM,1,1,,B,H3HfJJ0lttpTD00000000000000,2*4E",
      "sequence": 294
    },
    {
      "timestamp": 1752964791.899979,
      "relative_time": 18.805763244628906,
      "message": "$IIMWV,333.5,R,11.16,N,A*3C",
      "sequence": 295
    },
    {
      "timestamp": 1752964791.961013,
      "relative_time": 18.86679720878601,
      "message": "$IIVWR,26.5,L,11.16,N,,,,*67",
      "sequence": 296
    },
    {
      "timestamp": 1752964792.022089,
      "relative_time": 18.927873134613037,
      "message": "$IIMWV,338.5,R,11.06,N,A*36",
      "sequence": 297
    },
    {
      "timestamp": 1752964792.098909,
      "relative_time": 19.004693031311035,
      "message": "$IIMWV,353.0,R,10.46,N,A*3B",
      "sequence": 298
    },
    {
      "timestamp": 1752964792.1592672,
      "relative_time": 19.065051317214966,
      "message": "$IIVHW,,T,170.73,M,,N,,K*49",
      "sequence": 299
    },
    {
      "timestamp": 1752964792.215009,
      "relative_time": 19.120793104171753,
      "message": "$IIMWV,352.5,R,9.95,N,A*09",
      "sequence": 300
    },
    {
      "timestamp": 1752964792.276795,
      "relative_time": 19.182579040527344,
      "message": "$GPGLL,4838.1993,N,00201.4007,W,,A,A*50",
      "sequence": 301
    },
    {
      "timestamp": 1752964792.361742,
      "relative_time": 19.267526149749756,
      "message": "$GPZDA,223951,19,07,2025,,*4C",
      "sequence": 302
    },
    {
      "timestamp": 1752964792.4223402,
      "relative_time": 19.328124284744263,
      "message": "$IIVHW,,T,170.71,M,,N,,K*4B",
      "sequence": 303
    },
    {
      "timestamp": 1752964792.485057,
      "relative_time": 19.390841245651245,
      "message": "$HCHDG,170.71,,,,*72",
      "sequence": 304
    },
    {
      "timestamp": 1752964792.533086,
      "relative_time": 19.438870191574097,
      "message": "$TIROT,-0.00,A*26",
      "sequence": 305
    },
    {
      "timestamp": 1752964792.572608,
      "relative_time": 19.478392124176025,
      "message": "$IIMWV,337.5,R,9.47,N,A*05",
      "sequence": 306
    },
    {
      "timestamp": 1752964792.630532,
      "relative_time": 19.53631615638733,
      "message": "$IIVWR,22.5,L,9.47,N,,,,*5E",
      "sequence": 307
    },
    {
      "timestamp": 1752964792.6959722,
      "relative_time": 19.60175633430481,
      "message": "$IIVHW,,T,170.71,M,,N,,K*4B",
      "sequence": 308
    },
    {
      "timestamp": 1752964792.757527,
      "relative_time": 19.66331124305725,
      "message": "$IIMWV,347.5,R,9.76,N,A*00",
      "sequence": 309
    },
    {
      "timestamp": 1752964792.813251,
      "relative_time": 19.719035148620605,
      "message": "$IIVWR,12.5,L,9.76,N,,,,*5F",
      "sequence": 310
    },
    {
      "timestamp": 1752964792.879786,
      "relative_time": 19.78557014465332,
      "message": "$IIVHW,,T,170.72,M,,N,,K*48",
      "sequence": 311
    },
    {
      "timestamp": 1752964792.934088,
      "relative_time": 19.839872121810913,
      "message": "$GPRMC,223951.00,A,4838.2025,N,00201.4020,W,0.000,154.767,190725,,,A*4B",
      "sequence": 312
    },
    {
      "timestamp": 1752964793.0885031,
      "relative_time": 19.994287252426147,
      "message": "$IIVHW,,T,170.72,M,,N,,K*48",
      "sequence": 313
    },
    {
      "timestamp": 1752964793.150031,
      "relative_time": 20.05581521987915,
      "message": "$GPGLL,4838.1993,N,00201.4007,W,,A,A*50",
      "sequence": 314
    },
    {
      "timestamp": 1752964793.238936,
      "relative_time": 20.14472007751465,
      "message": "$GPGLL,4838.1993,N,00201.4007,W,,A,A*50",
      "sequence": 315
    },
    {
      "timestamp": 1752964793.323275,
      "relative_time": 20.22905921936035,
      "message": "$IIVHW,,T,170.73,M,,N,,K*49",
      "sequence": 316
    },
    {
      "timestamp": 1752964793.391705,
      "relative_time": 20.297489166259766,
      "message": "$GPGLL,4838.1993,N,00201.4007,W,,A,A*50",
      "sequence": 317
    },
    {
      "timestamp": 1752964793.48985,
      "relative_time": 20.395634174346924,
      "message": "$IIVHW,,T,170.74,M,,N,,K*4E",
      "sequence": 318
    },
    {
      "timestamp": 1752964793.573885,
      "relative_time": 20.479669094085693,
      "message": "$IIVHW,,T,170.74,M,,N,,K*4E",
      "sequence": 319
    },
    {
      "timestamp": 1752964793.63188,
      "relative_time": 20.53766417503357,
      "message": "!AIVDM,1,1,,B,13cIjt0000Onhq>KmQArWE9`08NT,0*08",
      "sequence": 320
    },
    {
      "timestamp": 1752964793.732973,
      "relative_time": 20.63875722885132,
      "message": "$GPZDA,223952,19,07,2025,,*4F",
      "sequence": 321
    },
    {
      "timestamp": 1752964793.799309,
      "relative_time": 20.705093145370483,
      "message": "$IIVHW,,T,170.74,M,,N,,K*4E",
      "sequence": 322
    },
    {
      "timestamp": 1752964793.859884,
      "relative_time": 20.765668153762817,
      "message": "$IIVHW,,T,170.73,M,,N,,K*49",
      "sequence": 323
    },
    {
      "timestamp": 1752964793.9196422,
      "relative_time": 20.82542634010315,
      "message": "$HCHDG,170.73,,,,*70",
      "sequence": 324
    },
    {
      "timestamp": 1752964793.9653382,
      "relative_time": 20.871122360229492,
      "message": "$TIROT,-0.00,A*26",
      "sequence": 325
    },
    {
      "timestamp": 1752964794.004999,
      "relative_time": 20.910783052444458,
      "message": "$IIMWV,358.5,R,10.46,N,A*35",
      "sequence": 326
    },
    {
      "timestamp": 1752964794.0648162,
      "relative_time": 20.970600366592407,
      "message": "$IIVHW,,T,170.74,M,,N,,K*4E",
      "sequence": 327
    },
    {
      "timestamp": 1752964794.124853,
      "relative_time": 21.03063702583313,
      "message": "$IIVHW,,T,170.74,M,,N,,K*4E",
      "sequence": 328
    },
    {
      "timestamp": 1752964794.190061,
      "relative_time": 21.095845222473145,
      "message": "$IIMWV,353.5,R,10.65,N,A*3F",
      "sequence": 329
    },
    {
      "timestamp": 1752964794.249095,
      "relative_time": 21.154879093170166,
      "message": "$IIVHW,,T,170.72,M,,N,,K*48",
      "sequence": 330
    },
    {
      "timestamp": 1752964794.309508,
      "relative_time": 21.21529221534729,
      "message": "$HCHDG,170.72,,,,*71",
      "sequence": 331
    },
    {
      "timestamp": 1752964794.354789,
      "relative_time": 21.260573148727417,
      "message": "$IIVHW,,T,170.71,M,,N,,K*4B",
      "sequence": 332
    },
    {
      "timestamp": 1752964794.4148219,
      "relative_time": 21.320605993270874,
      "message": "$IIVHW,,T,170.72,M,,N,,K*48",
      "sequence": 333
    },
    {
      "timestamp": 1752964794.4746501,
      "relative_time": 21.380434274673462,
      "message": "$HCHDG,170.72,,,,*71",
      "sequence": 334
    },
    {
      "timestamp": 1752964794.520687,
      "relative_time": 21.42647123336792,
      "message": "$IIVHW,,T,170.71,M,,N,,K*4B",
      "sequence": 335
    },
    {
      "timestamp": 1752964794.617144,
      "relative_time": 21.52292823791504,
      "message": "$IIMWV,346.0,R,11.66,N,A*3C",
      "sequence": 336
    },
    {
      "timestamp": 1752964794.6873221,
      "relative_time": 21.593106269836426,
      "message": "!AIVDM,1,1,,B,4@2:owB0=Ma`0OmHd>KnoWO02000,0*22",
      "sequence": 337
    },
    {
      "timestamp": 1752964794.79325,
      "relative_time": 21.699034214019775,
      "message": "$IIVHW,,T,170.74,M,,N,,K*4E",
      "sequence": 338
    },
    {
      "timestamp": 1752964794.852246,
      "relative_time": 21.75803017616272,
      "message": "$HCHDG,170.74,,,,*77",
      "sequence": 339
    },
    {
      "timestamp": 1752964794.896689,
      "relative_time": 21.802473068237305,
      "message": "$TIROT,0.00,A*0B",
      "sequence": 340
    },
    {
      "timestamp": 1752964794.938252,
      "relative_time": 21.844036102294922,
      "message": "$IIMWV,359.0,R,11.76,N,A*33",
      "sequence": 341
    },
    {
      "timestamp": 1752964794.998098,
      "relative_time": 21.903882026672363,
      "message": "$IIVHW,,T,170.74,M,,N,,K*4E",
      "sequence": 342
    },
    {
      "timestamp": 1752964795.0582778,
      "relative_time": 21.964061975479126,
      "message": "$IIMWV,6.5,R,11.76,N,A*3F",
      "sequence": 343
    },
    {
      "timestamp": 1752964795.1139681,
      "relative_time": 22.019752264022827,
      "message": "$IIMWV,357.0,R,11.86,N,A*32",
      "sequence": 344
    },
    {
      "timestamp": 1752964795.173933,
      "relative_time": 22.07971715927124,
      "message": "$IIVHW,,T,170.75,M,,N,,K*4F",
      "sequence": 345
    },
    {
      "timestamp": 1752964795.2343721,
      "relative_time": 22.140156269073486,
      "message": "$GPGLL,4838.1993,N,00201.4007,W,,A,A*50",
      "sequence": 346
    },
    {
      "timestamp": 1752964795.31879,
      "relative_time": 22.224574089050293,
      "message": "$HCHDG,170.75,,,,*76",
      "sequence": 347
    },
    {
      "timestamp": 1752964795.364554,
      "relative_time": 22.27033805847168,
      "message": "$IIVHW,,T,170.75,M,,N,,K*4F",
      "sequence": 348
    },
    {
      "timestamp": 1752964795.424602,
      "relative_time": 22.3303861618042,
      "message": "$IIVHW,,T,170.75,M,,N,,K*4F",
      "sequence": 349
    },
    {
      "timestamp": 1752964795.4884758,
      "relative_time": 22.394259929656982,
      "message": "$HCHDG,170.75,,,,*76",
      "sequence": 350
    },
    {
      "timestamp": 1752964795.538486,
      "relative_time": 22.444270133972168,
      "message": "$IIVHW,,T,170.75,M,,N,,K*4F",
      "sequence": 351
    },
    {
      "timestamp": 1752964795.624286,
      "relative_time": 22.530070066452026,
      "message": "$HCHDG,170.75,,,,*76",
      "sequence": 352
    },
    {
      "timestamp": 1752964795.6705742,
      "relative_time": 22.576358318328857,
      "message": "$IIVHW,,T,170.75,M,,N,,K*4F",
      "sequence": 353
    },
    {
      "timestamp": 1752964795.741536,
      "relative_time": 22.64732003211975,
      "message": "$IIVHW,,T,170.74,M,,N,,K*4E",
      "sequence": 354
    },
    {
      "timestamp": 1752964795.798357,
      "relative_time": 22.70414113998413,
      "message": "$IIMWV,335.0,R,12.15,N,A*3F",
      "sequence": 355
    },
    {
      "timestamp": 1752964795.862994,
      "relative_time": 22.768778085708618,
      "message": "$IIVHW,,T,170.74,M,,N,,K*4E",
      "sequence": 356
    },
    {
      "timestamp": 1752964795.919761,
      "relative_time": 22.825545072555542,
      "message": "$GPGLL,4838.1993,N,00201.4007,W,,A,A*50",
      "sequence": 357
    },
    {
      "timestamp": 1752964796.0040152,
      "relative_time": 22.909799337387085,
      "message": "$HCHDG,170.75,,,,*76",
      "sequence": 358
    },
    {
      "timestamp": 1752964796.05278,
      "relative_time": 22.958564043045044,
      "message": "$GPGLL,4838.1993,N,00201.4007,W,,A,A*50",
      "sequence": 359
    },
    {
      "timestamp": 1752964796.152519,
      "relative_time": 23.058303117752075,
      "message": "$GPVTG,149.066,T,,M,0.389,N,0.720,K,A*06",
      "sequence": 360
    },
    {
      "timestamp": 1752964796.2347221,
      "relative_time": 23.140506267547607,
      "message": "$TIROT,-0.00,A*26",
      "sequence": 361
    },
    {
      "timestamp": 1752964796.272681,
      "relative_time": 23.178465127944946,
      "message": "$IIMWV,330.5,R,12.25,N,A*3C",
      "sequence": 362
    },
    {
      "timestamp": 1752964796.3378,
      "relative_time": 23.243584156036377,
      "message": "$IIMWV,333.5,R,12.25,N,A*3F",
      "sequence": 363
    },
    {
      "timestamp": 1752964796.394007,
